$GPGGA,001933.112,,,,,0,00,,,M,0.0,M,,0000*5C
$GPGGA,001934.112,,,,,0,00,,,M,0.0,M,,0000*5B
$GPGGA,001935.114,3037.3394,N,09620.2443,W,1,08,1.0,97.8,M,-23.3,M,,0000*52
$GPRMC,001935.114,A,3037.3394,N,09620.2443,W,0.03,54.45,041008,,,A*4E
$GPGGA,001936.000,3037.3397,N,09620.2443,W,1,08,1.0,98.4,M,-23.3,M,,0000*55
$GPRMC,001936.000,A,3037.3397,N,09620.2443,W,0.03,76.33,041008,,,A*4B
$GPGGA,001937.000,3037.3398,N,09620.2443,W,1,08,1.0,98.4,M,-23.3,M,,0000*5B
$GPRMC,001937.000,A,3037.3398,N,09620.2443,W,0.02,66.96,041008,,,A*4A
$GPGGA,001938.000,3037.3398,N,09620.2443,W,1,08,1.0,98.4,M,-23.3,M,,0000*54
$GPRMC,001938.000,A,3037.3398,N,09620.2443,W,0.00,,041008,,,A*66
$GPGGA,001939.000,3037.3398,N,09620.2443,W,1,08,1.0,98.4,M,-23.3,M,,0000*55
$GPRMC,001939.000,A,3037.3398,N,09620.2443,W,0.00,,041008,,,A*67
$GPGGA,001940.000,3037.3398,N,09620.2443,W,1,08,1.0,98.4,M,-23.3,M,,0000*5B
$GPRMC,001940.000,A,3037.3398,N,09620.2443,W,0.00,,041008,,,A*69
$GPGGA,001941.000,3037.3398,N,09620.2443,W,1,08,1.0,98.4,M,-23.3,M,,0000*5A
$GPRMC,001941.000,A,3037.3398,N,09620.2443,W,0.00,,041008,,,A*68
$GPGGA,001942.000,3037.3398,N,09620.2443,W,1,08,1.0,98.4,M,-23.3,M,,0000*59
$GPRMC,001942.000,A,3037.3398,N,09620.2443,W,0.00,,041008,,,A*6B
$GPGGA,001943.000,3037.3398,N,09620.2443,W,1,08,1.0,98.4,M,-23.3,M,,0000*58
$GPRMC,001943.000,A,3037.3398,N,09620.2443,W,0.00,,041008,,,A*6A
$GPGGA,001944.000,3037.3398,N,09620.2443,W,1,08,1.0,98.4,M,-23.3,M,,0000*5F
$GPRMC,001944.000,A,3037.3398,N,09620.2443,W,0.00,,041008,,,A*6D
$GPGGA,001945.000,3037.3398,N,09620.2443,W,1,08,1.0,98.4,M,-23.3,M,,0000*5E
$GPRMC,001945.000,A,3037.3398,N,09620.2443,W,0.00,,041008,,,A*6C
$GPGGA,001946.000,3037.3398,N,09620.2443,W,1,08,1.0,98.4,M,-23.3,M,,0000*5D
$GPRMC,001946.000,A,3037.3398,N,09620.2443,W,0.00,,041008,,,A*6F
$GPGGA,001947.000,3037.3398,N,09620.2443,W,1,08,1.0,98.4,M,-23.3,M,,0000*5C
$GPRMC,001947.000,A,3037.3398,N,09620.2443,W,0.00,,041008,,,A*6E
$GPGGA,001948.000,3037.3398,N,09620.2443,W,1,08,1.0,98.4,M,-23.3,M,,0000*53
$GPRMC,001948.000,A,3037.3398,N,09620.2443,W,0.00,,041008,,,A*61
$GPGGA,001949.000,3037.3398,N,09620.2443,W,1,08,1.0,98.4,M,-23.3,M,,0000*52
$GPRMC,001949.000,A,3037.3398,N,09620.2443,W,0.00,,041008,,,A*60
$GPGGA,001950.000,3037.3398,N,09620.2443,W,1,08,1.0,98.4,M,-23.3,M,,0000*5A
$GPRMC,001950.000,A,3037.3398,N,09620.2443,W,0.00,,041008,,,A*68
$GPGGA,001951.000,3037.3398,N,09620.2443,W,1,08,1.0,98.4,M,-23.3,M,,0000*5B
$GPRMC,001951.000,A,3037.3398,N,09620.2443,W,0.00,,041008,,,A*69
$GPGGA,001952.000,3037.3398,N,09620.2443,W,1,08,1.0,98.4,M,-23.3,M,,0000*58
$GPRMC,001952.000,A,3037.3398,N,09620.2443,W,0.00,,041008,,,A*6A
$GPGGA,001953.000,3037.3398,N,09620.2443,W,1,08,1.0,98.4,M,-23.3,M,,0000*59
$GPRMC,001953.000,A,3037.3398,N,09620.2443,W,0.00,,041008,,,A*6B
$GPGGA,001954.000,3037.3398,N,09620.2443,W,1,08,1.0,98.4,M,-23.3,M,,0000*5E
$GPRMC,001954.000,A,3037.3398,N,09620.2443,W,0.00,,041008,,,A*6C
$GPGGA,001955.000,3037.3398,N,09620.2443,W,1,08,1.0,98.4,M,-23.3,M,,0000*5F
$GPRMC,001955.000,A,3037.3398,N,09620.2443,W,0.00,,041008,,,A*6D
$GPGGA,001956.000,3037.3398,N,09620.2443,W,1,08,1.0,98.4,M,-23.3,M,,0000*5C
$GPRMC,001956.000,A,3037.3398,N,09620.2443,W,0.00,,041008,,,A*6E
$GPGGA,001957.000,3037.3398,N,09620.2443,W,1,08,1.0,98.4,M,-23.3,M,,0000*5D
$GPRMC,001957.000,A,3037.3398,N,09620.2443,W,0.00,,041008,,,A*6F
$GPGGA,001958.000,3037.3398,N,09620.2443,W,1,08,1.0,98.4,M,-23.3,M,,0000*52
$GPRMC,001958.000,A,3037.3398,N,09620.2443,W,0.00,,041008,,,A*60
$GPGGA,001959.000,3037.3398,N,09620.2443,W,1,08,1.0,98.4,M,-23.3,M,,0000*53
$GPRMC,001959.000,A,3037.3398,N,09620.2443,W,0.00,,041008,,,A*61
$GPGGA,002000.000,3037.3398,N,09620.2443,W,1,08,1.0,98.4,M,-23.3,M,,0000*55
$GPRMC,002000.000,A,3037.3398,N,09620.2443,W,0.00,,041008,,,A*67
$GPGGA,002001.000,3037.3398,N,09620.2443,W,1,08,1.0,98.4,M,-23.3,M,,0000*54
$GPRMC,002001.000,A,3037.3398,N,09620.2443,W,0.00,,041008,,,A*66
$GPGGA,002002.000,3037.3398,N,09620.2443,W,1,08,1.0,98.4,M,-23.3,M,,0000*57
$GPRMC,002002.000,A,3037.3398,N,09620.2443,W,0.00,,041008,,,A*65
$GPGGA,002003.000,3037.3398,N,09620.2443,W,1,08,1.0,98.4,M,-23.3,M,,0000*56
$GPRMC,002003.000,A,3037.3398,N,09620.2443,W,0.00,,041008,,,A*64
$GPGGA,002004.000,3037.3398,N,09620.2443,W,1,08,1.0,98.4,M,-23.3,M,,0000*51
$GPRMC,002004.000,A,3037.3398,N,09620.2443,W,0.00,,041008,,,A*63
$GPGGA,002005.000,3037.3398,N,09620.2443,W,1,08,1.0,98.4,M,-23.3,M,,0000*50
$GPRMC,002005.000,A,3037.3398,N,09620.2443,W,0.00,,041008,,,A*62
$GPGGA,002006.000,3037.3398,N,09620.2443,W,1,08,1.0,98.4,M,-23.3,M,,0000*53
$GPRMC,002006.000,A,3037.3398,N,09620.2443,W,0.00,,041008,,,A*61
$GPGGA,002007.000,3037.3398,N,09620.2443,W,1,08,1.0,98.4,M,-23.3,M,,0000*52
$GPRMC,002007.000,A,3037.3398,N,09620.2443,W,0.00,,041008,,,A*60
$GPGGA,002008.000,3037.3398,N,09620.2443,W,1,08,1.0,98.4,M,-23.3,M,,0000*5D
$GPRMC,002008.000,A,3037.3398,N,09620.2443,W,0.00,,041008,,,A*6F
$GPGGA,002009.000,3037.3398,N,09620.2443,W,1,08,1.0,98.4,M,-23.3,M,,0000*5C
$GPRMC,002009.000,A,3037.3398,N,09620.2443,W,0.00,,041008,,,A*6E
$GPGGA,002010.000,3037.3398,N,09620.2443,W,1,08,1.0,98.4,M,-23.3,M,,0000*54
$GPRMC,002010.000,A,3037.3398,N,09620.2443,W,0.00,,041008,,,A*66
$GPGGA,002011.000,3037.3398,N,09620.2443,W,1,08,1.0,98.4,M,-23.3,M,,0000*55
$GPRMC,002011.000,A,3037.3398,N,09620.2443,W,0.00,,041008,,,A*67
$GPGGA,002012.000,3037.3398,N,09620.2443,W,1,08,1.0,98.4,M,-23.3,M,,0000*56
$GPRMC,002012.000,A,3037.3398,N,09620.2443,W,0.00,,041008,,,A*64
$GPGGA,002013.000,3037.3398,N,09620.2443,W,1,08,1.0,98.4,M,-23.3,M,,0000*57
$GPRMC,002013.000,A,3037.3398,N,09620.2443,W,0.00,,041008,,,A*65
$GPGGA,002014.000,3037.3398,N,09620.2443,W,1,08,1.0,98.4,M,-23.3,M,,0000*50
$GPRMC,002014.000,A,3037.3398,N,09620.2443,W,0.00,,041008,,,A*62
$GPGGA,002015.000,3037.3398,N,09620.2443,W,1,08,1.0,98.4,M,-23.3,M,,0000*51
$GPRMC,002015.000,A,3037.3398,N,09620.2443,W,0.00,,041008,,,A*63
$GPGGA,002016.000,3037.3398,N,09620.2443,W,1,08,1.0,98.4,M,-23.3,M,,0000*52
$GPRMC,002016.000,A,3037.3398,N,09620.2443,W,0.00,,041008,,,A*60
$GPGGA,002017.000,3037.3398,N,09620.2443,W,1,08,1.0,98.4,M,-23.3,M,,0000*53
$GPRMC,002017.000,A,3037.3398,N,09620.2443,W,0.00,,041008,,,A*61
$GPGGA,002018.000,3037.3398,N,09620.2443,W,1,08,1.0,98.4,M,-23.3,M,,0000*5C
$GPRMC,002018.000,A,3037.3398,N,09620.2443,W,0.00,,041008,,,A*6E
$GPGGA,002019.000,3037.3398,N,09620.2443,W,1,08,1.0,98.4,M,-23.3,M,,0000*5D
$GPRMC,002019.000,A,3037.3398,N,09620.2443,W,0.00,,041008,,,A*6F
$GPGGA,002020.000,3037.3398,N,09620.2443,W,1,08,1.0,98.4,M,-23.3,M,,0000*57
$GPRMC,002020.000,A,3037.3398,N,09620.2443,W,0.00,,041008,,,A*65
$GPGGA,002021.000,3037.3398,N,09620.2443,W,1,08,1.0,98.4,M,-23.3,M,,0000*56
$GPRMC,002021.000,A,3037.3398,N,09620.2443,W,0.00,,041008,,,A*64
$GPGGA,002022.000,3037.3398,N,09620.2443,W,1,08,1.0,98.4,M,-23.3,M,,0000*55
$GPRMC,002022.000,A,3037.3398,N,09620.2443,W,0.00,,041008,,,A*67
$GPGGA,002023.000,3037.3398,N,09620.2443,W,1,08,1.0,98.4,M,-23.3,M,,0000*54
$GPRMC,002023.000,A,3037.3398,N,09620.2443,W,0.00,,041008,,,A*66
$GPGGA,002024.000,3037.3398,N,09620.2443,W,1,08,1.0,98.4,M,-23.3,M,,0000*53
$GPRMC,002024.000,A,3037.3398,N,09620.2443,W,0.00,,041008,,,A*61
$GPGGA,002025.000,3037.3398,N,09620.2443,W,1,08,1.0,98.4,M,-23.3,M,,0000*52
$GPRMC,002025.000,A,3037.3398,N,09620.2443,W,0.00,,041008,,,A*60
$GPGGA,002026.000,3037.3398,N,09620.2443,W,1,08,1.0,98.4,M,-23.3,M,,0000*51
$GPRMC,002026.000,A,3037.3398,N,09620.2443,W,0.00,,041008,,,A*63
$GPGGA,002027.000,3037.3398,N,09620.2443,W,1,08,1.0,98.4,M,-23.3,M,,0000*50
$GPRMC,002027.000,A,3037.3398,N,09620.2443,W,0.00,,041008,,,A*62
$GPGGA,002028.000,3037.3398,N,09620.2443,W,1,08,1.0,98.4,M,-23.3,M,,0000*5F
$GPRMC,002028.000,A,3037.3398,N,09620.2443,W,0.00,,041008,,,A*6D
$GPGGA,002029.000,3037.3398,N,09620.2443,W,1,08,1.0,98.4,M,-23.3,M,,0000*5E
$GPRMC,002029.000,A,3037.3398,N,09620.2443,W,0.00,,041008,,,A*6C
$GPGGA,002030.000,3037.3398,N,09620.2443,W,1,08,1.0,98.4,M,-23.3,M,,0000*56
$GPRMC,002030.000,A,3037.3398,N,09620.2443,W,0.00,,041008,,,A*64
$GPGGA,002031.000,3037.3398,N,09620.2443,W,1,08,1.0,98.4,M,-23.3,M,,0000*57
$GPRMC,002031.000,A,3037.3398,N,09620.2443,W,0.00,,041008,,,A*65
$GPGGA,002032.000,3037.3398,N,09620.2443,W,1,08,1.0,98.4,M,-23.3,M,,0000*54
$GPRMC,002032.000,A,3037.3398,N,09620.2443,W,0.00,,041008,,,A*66
$GPGGA,002033.000,3037.3398,N,09620.2443,W,1,08,1.0,98.4,M,-23.3,M,,0000*55
$GPRMC,002033.000,A,3037.3398,N,09620.2443,W,0.00,,041008,,,A*67
$GPGGA,002034.000,3037.3398,N,09620.2443,W,1,08,1.0,98.4,M,-23.3,M,,0000*52
$GPRMC,002034.000,A,3037.3398,N,09620.2443,W,0.00,,041008,,,A*60
$GPGGA,002035.000,3037.3398,N,09620.2443,W,1,08,1.0,98.4,M,-23.3,M,,0000*53
$GPRMC,002035.000,A,3037.3398,N,09620.2443,W,0.00,,041008,,,A*61
$GPGGA,002036.000,3037.3398,N,09620.2443,W,1,08,1.0,98.4,M,-23.3,M,,0000*50
$GPRMC,002036.000,A,3037.3398,N,09620.2443,W,0.00,,041008,,,A*62
$GPGGA,002037.000,3037.3398,N,09620.2443,W,1,08,1.0,98.4,M,-23.3,M,,0000*51
$GPRMC,002037.000,A,3037.3398,N,09620.2443,W,0.00,,041008,,,A*63
$GPGGA,002038.000,3037.3398,N,09620.2443,W,1,08,1.0,98.4,M,-23.3,M,,0000*5E
$GPRMC,002038.000,A,3037.3398,N,09620.2443,W,0.00,,041008,,,A*6C
$GPGGA,002039.000,3037.3398,N,09620.2443,W,1,08,1.0,98.4,M,-23.3,M,,0000*5F
$GPRMC,002039.000,A,3037.3398,N,09620.2443,W,0.00,,041008,,,A*6D
$GPGGA,002040.000,3037.3398,N,09620.2443,W,1,08,1.0,98.4,M,-23.3,M,,0000*51
$GPRMC,002040.000,A,3037.3398,N,09620.2443,W,0.00,,041008,,,A*63
$GPGGA,002041.000,3037.3398,N,09620.2443,W,1,08,1.0,98.4,M,-23.3,M,,0000*50
$GPRMC,002041.000,A,3037.3398,N,09620.2443,W,0.00,,041008,,,A*62
$GPGGA,002042.000,3037.3398,N,09620.2443,W,1,08,1.0,98.4,M,-23.3,M,,0000*53
$GPRMC,002042.000,A,3037.3398,N,09620.2443,W,0.00,,041008,,,A*61
$GPGGA,002043.000,3037.3398,N,09620.2443,W,1,08,1.0,98.4,M,-23.3,M,,0000*52
$GPRMC,002043.000,A,3037.3398,N,09620.2443,W,0.00,,041008,,,A*60
$GPGGA,002044.000,3037.3398,N,09620.2443,W,1,08,1.0,98.4,M,-23.3,M,,0000*55
$GPRMC,002044.000,A,3037.3398,N,09620.2443,W,0.00,,041008,,,A*67
$GPGGA,002045.000,3037.3398,N,09620.2443,W,1,08,1.0,98.4,M,-23.3,M,,0000*54
$GPRMC,002045.000,A,3037.3398,N,09620.2443,W,0.00,,041008,,,A*66
$GPGGA,002046.000,3037.3398,N,09620.2443,W,1,08,1.0,98.4,M,-23.3,M,,0000*57
$GPRMC,002046.000,A,3037.3398,N,09620.2443,W,0.00,,041008,,,A*65
$GPGGA,002047.000,3037.3398,N,09620.2443,W,1,08,1.0,98.4,M,-23.3,M,,0000*56
$GPRMC,002047.000,A,3037.3398,N,09620.2443,W,0.00,,041008,,,A*64
$GPGGA,002048.000,3037.3398,N,09620.2443,W,1,08,1.0,98.4,M,-23.3,M,,0000*59
$GPRMC,002048.000,A,3037.3398,N,09620.2443,W,0.00,,041008,,,A*6B
$GPGGA,002049.000,3037.3398,N,09620.2443,W,1,08,1.0,98.4,M,-23.3,M,,0000*58
$GPRMC,002049.000,A,3037.3398,N,09620.2443,W,0.00,,041008,,,A*6A
$GPGGA,002050.000,3037.3398,N,09620.2443,W,1,08,1.0,98.4,M,-23.3,M,,0000*50
$GPRMC,002050.000,A,3037.3398,N,09620.2443,W,0.00,,041008,,,A*62
$GPGGA,002051.000,3037.3398,N,09620.2443,W,1,08,1.0,98.4,M,-23.3,M,,0000*51
$GPRMC,002051.000,A,3037.3398,N,09620.2443,W,0.00,,041008,,,A*63
$GPGGA,002052.000,3037.3398,N,09620.2443,W,1,08,1.0,98.4,M,-23.3,M,,0000*52
$GPRMC,002052.000,A,3037.3398,N,09620.2443,W,0.00,,041008,,,A*60
$GPGGA,002053.000,3037.3398,N,09620.2443,W,1,08,1.0,98.4,M,-23.3,M,,0000*53
$GPRMC,002053.000,A,3037.3398,N,09620.2443,W,0.00,,041008,,,A*61
$GPGGA,002054.000,3037.3398,N,09620.2443,W,1,08,1.0,98.4,M,-23.3,M,,0000*54
$GPRMC,002054.000,A,3037.3398,N,09620.2443,W,0.00,,041008,,,A*66
$GPGGA,002055.000,3037.3398,N,09620.2443,W,1,08,1.0,98.4,M,-23.3,M,,0000*55
$GPRMC,002055.000,A,3037.3398,N,09620.2443,W,0.00,,041008,,,A*67
$GPGGA,002056.000,3037.3398,N,09620.2443,W,1,08,1.0,98.4,M,-23.3,M,,0000*56
$GPRMC,002056.000,A,3037.3398,N,09620.2443,W,0.00,,041008,,,A*64
$GPGGA,002057.000,3037.3398,N,09620.2443,W,1,08,1.0,98.4,M,-23.3,M,,0000*57
$GPRMC,002057.000,A,3037.3398,N,09620.2443,W,0.00,,041008,,,A*65
$GPGGA,002058.000,3037.3398,N,09620.2443,W,1,08,1.0,98.4,M,-23.3,M,,0000*58
$GPRMC,002058.000,A,3037.3398,N,09620.2443,W,0.00,,041008,,,A*6A
$GPGGA,002059.000,3037.3398,N,09620.2443,W,1,08,1.0,98.4,M,-23.3,M,,0000*59
$GPRMC,002059.000,A,3037.3398,N,09620.2443,W,0.00,,041008,,,A*6B
$GPGGA,002100.000,3037.3398,N,09620.2443,W,1,08,1.0,98.4,M,-23.3,M,,0000*54
$GPRMC,002100.000,A,3037.3398,N,09620.2443,W,0.00,,041008,,,A*66
$GPGGA,002101.000,3037.3398,N,09620.2443,W,1,08,1.0,98.4,M,-23.3,M,,0000*55
$GPRMC,002101.000,A,3037.3398,N,09620.2443,W,0.00,,041008,,,A*67
$GPGGA,002102.000,3037.3398,N,09620.2443,W,1,08,1.0,98.4,M,-23.3,M,,0000*56
$GPRMC,002102.000,A,3037.3398,N,09620.2443,W,0.00,,041008,,,A*64
$GPGGA,002103.000,3037.3398,N,09620.2443,W,1,08,1.0,98.4,M,-23.3,M,,0000*57
$GPRMC,002103.000,A,3037.3398,N,09620.2443,W,0.00,,041008,,,A*65
$GPGGA,002104.000,3037.3398,N,09620.2443,W,1,08,1.0,98.4,M,-23.3,M,,0000*50
$GPRMC,002104.000,A,3037.3398,N,09620.2443,W,0.00,,041008,,,A*62
$GPGGA,002105.000,3037.3398,N,09620.2443,W,1,08,1.0,98.4,M,-23.3,M,,0000*51
$GPRMC,002105.000,A,3037.3398,N,09620.2443,W,0.00,,041008,,,A*63
$GPGGA,002106.000,3037.3398,N,09620.2443,W,1,08,1.0,98.4,M,-23.3,M,,0000*52
$GPRMC,002106.000,A,3037.3398,N,09620.2443,W,0.00,,041008,,,A*60
$GPGGA,002107.000,3037.3398,N,09620.2443,W,1,08,1.0,98.4,M,-23.3,M,,0000*53
$GPRMC,002107.000,A,3037.3398,N,09620.2443,W,0.00,,041008,,,A*61
$GPGGA,002108.000,3037.3398,N,09620.2443,W,1,08,1.0,98.4,M,-23.3,M,,0000*5C
$GPRMC,002108.000,A,3037.3398,N,09620.2443,W,0.00,,041008,,,A*6E
$GPGGA,002109.000,3037.3398,N,09620.2443,W,1,08,1.0,98.4,M,-23.3,M,,0000*5D
$GPRMC,002109.000,A,3037.3398,N,09620.2443,W,0.00,,041008,,,A*6F
$GPGGA,002110.000,3037.3398,N,09620.2443,W,1,08,1.0,98.4,M,-23.3,M,,0000*55
$GPRMC,002110.000,A,3037.3398,N,09620.2443,W,0.00,,041008,,,A*67
$GPGGA,002111.000,3037.3398,N,09620.2443,W,1,08,1.0,98.4,M,-23.3,M,,0000*54
$GPRMC,002111.000,A,3037.3398,N,09620.2443,W,0.00,,041008,,,A*66
$GPGGA,002112.000,3037.3398,N,09620.2443,W,1,08,1.0,98.4,M,-23.3,M,,0000*57
$GPRMC,002112.000,A,3037.3398,N,09620.2443,W,0.00,,041008,,,A*65
$GPGGA,002113.000,3037.3398,N,09620.2443,W,1,08,1.0,98.4,M,-23.3,M,,0000*56
$GPRMC,002113.000,A,3037.3398,N,09620.2443,W,0.00,,041008,,,A*64
$GPGGA,002114.000,3037.3398,N,09620.2443,W,1,08,1.0,98.4,M,-23.3,M,,0000*51
$GPRMC,002114.000,A,3037.3398,N,09620.2443,W,0.00,,041008,,,A*63
$GPGGA,002115.000,3037.3398,N,09620.2443,W,1,08,1.0,98.4,M,-23.3,M,,0000*50
$GPRMC,002115.000,A,3037.3398,N,09620.2443,W,0.00,,041008,,,A*62
$GPGGA,002116.000,3037.3398,N,09620.2443,W,1,08,1.0,98.4,M,-23.3,M,,0000*53
$GPRMC,002116.000,A,3037.3398,N,09620.2443,W,0.00,,041008,,,A*61
$GPGGA,002117.000,3037.3398,N,09620.2443,W,1,08,1.0,98.4,M,-23.3,M,,0000*52
$GPRMC,002117.000,A,3037.3398,N,09620.2443,W,0.00,,041008,,,A*60
$GPGGA,002118.000,3037.3398,N,09620.2443,W,1,08,1.0,98.4,M,-23.3,M,,0000*5D
$GPRMC,002118.000,A,3037.3398,N,09620.2443,W,0.00,,041008,,,A*6F
$GPGGA,002119.000,3037.3398,N,09620.2443,W,1,08,1.0,98.4,M,-23.3,M,,0000*5C
$GPRMC,002119.000,A,3037.3398,N,09620.2443,W,0.00,,041008,,,A*6E
$GPGGA,002120.000,3037.3398,N,09620.2443,W,1,08,1.0,98.4,M,-23.3,M,,0000*56
$GPRMC,002120.000,A,3037.3398,N,09620.2443,W,0.00,,041008,,,A*64
$GPGGA,002121.000,3037.3398,N,09620.2443,W,1,08,1.0,98.4,M,-23.3,M,,0000*57
$GPRMC,002121.000,A,3037.3398,N,09620.2443,W,0.00,,041008,,,A*65
$GPGGA,002122.000,3037.3398,N,09620.2443,W,1,08,1.0,98.4,M,-23.3,M,,0000*54
$GPRMC,002122.000,A,3037.3398,N,09620.2443,W,0.00,,041008,,,A*66
$GPGGA,002123.000,3037.3398,N,09620.2443,W,1,08,1.0,98.4,M,-23.3,M,,0000*55
$GPRMC,002123.000,A,3037.3398,N,09620.2443,W,0.00,,041008,,,A*67
$GPGGA,002124.000,3037.3398,N,09620.2443,W,1,08,1.0,98.4,M,-23.3,M,,0000*52
$GPRMC,002124.000,A,3037.3398,N,09620.2443,W,0.00,,041008,,,A*60
$GPGGA,002125.000,3037.3398,N,09620.2443,W,1,08,1.0,98.4,M,-23.3,M,,0000*53
$GPRMC,002125.000,A,3037.3398,N,09620.2443,W,0.00,,041008,,,A*61
$GPGGA,002126.000,3037.3398,N,09620.2443,W,1,08,1.0,98.4,M,-23.3,M,,0000*50
$GPRMC,002126.000,A,3037.3398,N,09620.2443,W,0.00,,041008,,,A*62
$GPGGA,002127.000,3037.3398,N,09620.2443,W,1,08,1.0,98.4,M,-23.3,M,,0000*51
$GPRMC,002127.000,A,3037.3398,N,09620.2443,W,0.00,,041008,,,A*63
$GPGGA,002128.000,3037.3398,N,09620.2443,W,1,08,1.0,98.4,M,-23.3,M,,0000*5E
$GPRMC,002128.000,A,3037.3398,N,09620.2443,W,0.00,,041008,,,A*6C
$GPGGA,002129.000,3037.3398,N,09620.2443,W,1,08,1.0,98.4,M,-23.3,M,,0000*5F
$GPRMC,002129.000,A,3037.3398,N,09620.2443,W,0.00,,041008,,,A*6D
$GPGGA,002130.000,3037.3398,N,09620.2443,W,1,08,1.0,98.4,M,-23.3,M,,0000*57
$GPRMC,002130.000,A,3037.3398,N,09620.2443,W,0.00,,041008,,,A*65
$GPGGA,002131.000,3037.3398,N,09620.2443,W,1,08,1.0,98.4,M,-23.3,M,,0000*56
$GPRMC,002131.000,A,3037.3398,N,09620.2443,W,0.00,,041008,,,A*64
$GPGGA,002132.000,3037.3398,N,09620.2443,W,1,08,1.0,98.4,M,-23.3,M,,0000*55
$GPRMC,002132.000,A,3037.3398,N,09620.2443,W,0.00,,041008,,,A*67
$GPGGA,002133.000,3037.3398,N,09620.2443,W,1,08,1.0,98.4,M,-23.3,M,,0000*54
$GPRMC,002133.000,A,3037.3398,N,09620.2443,W,0.00,,041008,,,A*66
$GPGGA,002134.000,3037.3398,N,09620.2443,W,1,08,1.0,98.4,M,-23.3,M,,0000*53
$GPRMC,002134.000,A,3037.3398,N,09620.2443,W,0.00,,041008,,,A*61
$GPGGA,002135.000,3037.3398,N,09620.2443,W,1,08,1.0,98.4,M,-23.3,M,,0000*52
$GPRMC,002135.000,A,3037.3398,N,09620.2443,W,0.00,,041008,,,A*60
$GPGGA,002136.000,3037.3398,N,09620.2443,W,1,08,1.0,98.4,M,-23.3,M,,0000*51
$GPRMC,002136.000,A,3037.3398,N,09620.2443,W,0.00,,041008,,,A*63
$GPGGA,002137.000,3037.3398,N,09620.2443,W,1,08,1.0,98.4,M,-23.3,M,,0000*50
$GPRMC,002137.000,A,3037.3398,N,09620.2443,W,0.00,,041008,,,A*62
$GPGGA,002138.000,3037.3398,N,09620.2443,W,1,08,1.0,98.4,M,-23.3,M,,0000*5F
$GPRMC,002138.000,A,3037.3398,N,09620.2443,W,0.00,,041008,,,A*6D
$GPGGA,002139.000,3037.3398,N,09620.2443,W,1,08,1.0,98.4,M,-23.3,M,,0000*5E
$GPRMC,002139.000,A,3037.3398,N,09620.2443,W,0.00,,041008,,,A*6C
$GPGGA,002140.000,3037.3398,N,09620.2443,W,1,08,1.0,98.4,M,-23.3,M,,0000*50
$GPRMC,002140.000,A,3037.3398,N,09620.2443,W,0.00,,041008,,,A*62
$GPGGA,002141.000,3037.3398,N,09620.2443,W,1,08,1.0,98.4,M,-23.3,M,,0000*51
$GPRMC,002141.000,A,3037.3398,N,09620.2443,W,0.00,,041008,,,A*63
$GPGGA,002142.000,3037.3398,N,09620.2443,W,1,08,1.0,98.4,M,-23.3,M,,0000*52
$GPRMC,002142.000,A,3037.3398,N,09620.2443,W,0.00,,041008,,,A*60
$GPGGA,002143.000,3037.3398,N,09620.2443,W,1,08,1.0,98.4,M,-23.3,M,,0000*53
$GPRMC,002143.000,A,3037.3398,N,09620.2443,W,0.00,,041008,,,A*61
$GPGGA,002144.000,3037.3398,N,09620.2443,W,1,08,1.0,98.4,M,-23.3,M,,0000*54
$GPRMC,002144.000,A,3037.3398,N,09620.2443,W,0.00,,041008,,,A*66
$GPGGA,002145.000,3037.3398,N,09620.2443,W,1,08,1.0,98.4,M,-23.3,M,,0000*55
$GPRMC,002145.000,A,3037.3398,N,09620.2443,W,0.00,,041008,,,A*67
$GPGGA,002146.000,3037.3398,N,09620.2443,W,1,08,1.0,98.4,M,-23.3,M,,0000*56
$GPRMC,002146.000,A,3037.3398,N,09620.2443,W,0.00,,041008,,,A*64
$GPGGA,002147.000,3037.3398,N,09620.2443,W,1,08,1.0,98.4,M,-23.3,M,,0000*57
$GPRMC,002147.000,A,3037.3398,N,09620.2443,W,0.00,,041008,,,A*65
$GPGGA,002148.000,3037.3398,N,09620.2443,W,1,08,1.0,98.4,M,-23.3,M,,0000*58
$GPRMC,002148.000,A,3037.3398,N,09620.2443,W,0.00,,041008,,,A*6A
$GPGGA,002149.000,3037.3398,N,09620.2443,W,1,08,1.0,98.4,M,-23.3,M,,0000*59
$GPRMC,002149.000,A,3037.3398,N,09620.2443,W,0.00,,041008,,,A*6B
$GPGGA,002150.000,3037.3398,N,09620.2443,W,1,08,1.0,98.4,M,-23.3,M,,0000*51
$GPRMC,002150.000,A,3037.3398,N,09620.2443,W,0.00,,041008,,,A*63
$GPGGA,002151.000,3037.3398,N,09620.2443,W,1,08,1.0,98.4,M,-23.3,M,,0000*50
$GPRMC,002151.000,A,3037.3398,N,09620.2443,W,0.00,,041008,,,A*62
$GPGGA,002152.000,3037.3398,N,09620.2443,W,1,08,1.0,98.4,M,-23.3,M,,0000*53
$GPRMC,002152.000,A,3037.3398,N,09620.2443,W,0.00,,041008,,,A*61
$GPGGA,002153.000,3037.3398,N,09620.2443,W,1,08,1.0,98.4,M,-23.3,M,,0000*52
$GPRMC,002153.000,A,3037.3398,N,09620.2443,W,0.00,,041008,,,A*60
$GPGGA,002154.000,3037.3398,N,09620.2443,W,1,08,1.0,98.4,M,-23.3,M,,0000*55
$GPRMC,002154.000,A,3037.3398,N,09620.2443,W,0.00,,041008,,,A*67
$GPGGA,002155.000,3037.3398,N,09620.2443,W,1,08,1.0,98.4,M,-23.3,M,,0000*54
$GPRMC,002155.000,A,3037.3398,N,09620.2443,W,0.00,,041008,,,A*66
$GPGGA,002156.000,3037.3398,N,09620.2443,W,1,08,1.0,98.4,M,-23.3,M,,0000*57
$GPRMC,002156.000,A,3037.3398,N,09620.2443,W,0.00,,041008,,,A*65
$GPGGA,002157.000,3037.3398,N,09620.2443,W,1,08,1.0,98.4,M,-23.3,M,,0000*56
$GPRMC,002157.000,A,3037.3398,N,09620.2443,W,0.00,,041008,,,A*64
$GPGGA,002158.000,3037.3398,N,09620.2443,W,1,08,1.0,98.4,M,-23.3,M,,0000*59
$GPRMC,002158.000,A,3037.3398,N,09620.2443,W,0.00,,041008,,,A*6B
$GPGGA,002159.000,3037.3398,N,09620.2443,W,1,08,1.0,98.4,M,-23.3,M,,0000*58
$GPRMC,002159.000,A,3037.3398,N,09620.2443,W,0.00,,041008,,,A*6A
$GPGGA,002200.000,3037.3398,N,09620.2443,W,1,08,1.0,98.4,M,-23.3,M,,0000*57
$GPRMC,002200.000,A,3037.3398,N,09620.2443,W,0.00,,041008,,,A*65
$GPGGA,002201.000,3037.3398,N,09620.2443,W,1,08,1.0,98.4,M,-23.3,M,,0000*56
$GPRMC,002201.000,A,3037.3398,N,09620.2443,W,0.00,,041008,,,A*64
$GPGGA,002202.000,3037.3398,N,09620.2443,W,1,08,1.0,98.4,M,-23.3,M,,0000*55
$GPRMC,002202.000,A,3037.3398,N,09620.2443,W,0.00,,041008,,,A*67
$GPGGA,002203.000,3037.3398,N,09620.2443,W,1,08,1.0,98.4,M,-23.3,M,,0000*54
$GPRMC,002203.000,A,3037.3398,N,09620.2443,W,0.00,,041008,,,A*66
$GPGGA,002204.000,3037.3398,N,09620.2443,W,1,08,1.0,98.4,M,-23.3,M,,0000*53
$GPRMC,002204.000,A,3037.3398,N,09620.2443,W,0.00,,041008,,,A*61
$GPGGA,002205.000,3037.3398,N,09620.2443,W,1,08,1.0,98.4,M,-23.3,M,,0000*52
$GPRMC,002205.000,A,3037.3398,N,09620.2443,W,0.00,,041008,,,A*60
$GPGGA,002206.000,3037.3398,N,09620.2443,W,1,08,1.0,98.4,M,-23.3,M,,0000*51
$GPRMC,002206.000,A,3037.3398,N,09620.2443,W,0.00,,041008,,,A*63
$GPGGA,002207.000,3037.3398,N,09620.2443,W,1,08,1.0,98.4,M,-23.3,M,,0000*50
$GPRMC,002207.000,A,3037.3398,N,09620.2443,W,0.00,,041008,,,A*62
$GPGGA,002208.000,3037.3398,N,09620.2443,W,1,08,1.0,98.4,M,-23.3,M,,0000*5F
$GPRMC,002208.000,A,3037.3398,N,09620.2443,W,0.00,,041008,,,A*6D
$GPGGA,002209.000,3037.3398,N,09620.2443,W,1,08,1.0,98.4,M,-23.3,M,,0000*5E
$GPRMC,002209.000,A,3037.3398,N,09620.2443,W,0.00,,041008,,,A*6C
$GPGGA,002210.000,3037.3398,N,09620.2443,W,1,08,1.0,98.4,M,-23.3,M,,0000*56
$GPRMC,002210.000,A,3037.3398,N,09620.2443,W,0.00,,041008,,,A*64
$GPGGA,002211.000,3037.3398,N,09620.2443,W,1,08,1.0,98.4,M,-23.3,M,,0000*57
$GPRMC,002211.000,A,3037.3398,N,09620.2443,W,0.00,,041008,,,A*65
$GPGGA,002212.000,3037.3398,N,09620.2443,W,1,08,1.0,98.4,M,-23.3,M,,0000*54
$GPRMC,002212.000,A,3037.3398,N,09620.2443,W,0.00,,041008,,,A*66
$GPGGA,002213.000,3037.3398,N,09620.2443,W,1,08,1.0,98.4,M,-23.3,M,,0000*55
$GPRMC,002213.000,A,3037.3398,N,09620.2443,W,0.00,,041008,,,A*67
$GPGGA,002214.000,3037.3398,N,09620.2443,W,1,08,1.0,98.4,M,-23.3,M,,0000*52
$GPRMC,002214.000,A,3037.3398,N,09620.2443,W,0.00,,041008,,,A*60
$GPGGA,002215.000,3037.3398,N,09620.2443,W,1,08,1.0,98.4,M,-23.3,M,,0000*53
$GPRMC,002215.000,A,3037.3398,N,09620.2443,W,0.00,,041008,,,A*61
$GPGGA,002216.000,3037.3398,N,09620.2443,W,1,08,1.0,98.4,M,-23.3,M,,0000*50
$GPRMC,002216.000,A,3037.3398,N,09620.2443,W,0.00,,041008,,,A*62
$GPGGA,002217.000,3037.3398,N,09620.2443,W,1,08,1.0,98.4,M,-23.3,M,,0000*51
$GPRMC,002217.000,A,3037.3398,N,09620.2443,W,0.00,,041008,,,A*63
$GPGGA,002218.000,3037.3398,N,09620.2443,W,1,08,1.0,98.4,M,-23.3,M,,0000*5E
$GPRMC,002218.000,A,3037.3398,N,09620.2443,W,0.00,,041008,,,A*6C
$GPGGA,002219.000,3037.3398,N,09620.2443,W,1,08,1.0,98.4,M,-23.3,M,,0000*5F
$GPRMC,002219.000,A,3037.3398,N,09620.2443,W,0.00,,041008,,,A*6D
$GPGGA,002220.000,3037.3398,N,09620.2443,W,1,08,1.0,98.4,M,-23.3,M,,0000*55
$GPRMC,002220.000,A,3037.3398,N,09620.2443,W,0.00,,041008,,,A*67
$GPGGA,002221.000,3037.3398,N,09620.2443,W,1,08,1.0,98.4,M,-23.3,M,,0000*54
$GPRMC,002221.000,A,3037.3398,N,09620.2443,W,0.00,,041008,,,A*66
$GPGGA,002222.000,3037.3398,N,09620.2443,W,1,08,1.0,98.4,M,-23.3,M,,0000*57
$GPRMC,002222.000,A,3037.3398,N,09620.2443,W,0.00,,041008,,,A*65
$GPGGA,002223.000,3037.3398,N,09620.2443,W,1,08,1.0,98.4,M,-23.3,M,,0000*56
$GPRMC,002223.000,A,3037.3398,N,09620.2443,W,0.00,,041008,,,A*64
$GPGGA,002224.000,3037.3398,N,09620.2443,W,1,08,1.0,98.4,M,-23.3,M,,0000*51
$GPRMC,002224.000,A,3037.3398,N,09620.2443,W,0.00,,041008,,,A*63
$GPGGA,002225.000,3037.3398,N,09620.2443,W,1,08,1.0,98.4,M,-23.3,M,,0000*50
$GPRMC,002225.000,A,3037.3398,N,09620.2443,W,0.00,,041008,,,A*62
$GPGGA,002226.000,3037.3398,N,09620.2443,W,1,08,1.0,98.4,M,-23.3,M,,0000*53
$GPRMC,002226.000,A,3037.3398,N,09620.2443,W,0.00,,041008,,,A*61
$GPGGA,002227.000,3037.3398,N,09620.2443,W,1,08,1.0,98.4,M,-23.3,M,,0000*52
$GPRMC,002227.000,A,3037.3398,N,09620.2443,W,0.00,,041008,,,A*60
$GPGGA,002228.000,3037.3398,N,09620.2443,W,1,08,1.0,98.4,M,-23.3,M,,0000*5D
$GPRMC,002228.000,A,3037.3398,N,09620.2443,W,0.00,,041008,,,A*6F
$GPGGA,002229.000,3037.3398,N,09620.2443,W,1,08,1.0,98.4,M,-23.3,M,,0000*5C
$GPRMC,002229.000,A,3037.3398,N,09620.2443,W,0.00,,041008,,,A*6E
$GPGGA,002230.000,3037.3398,N,09620.2443,W,1,08,1.0,98.4,M,-23.3,M,,0000*54
$GPRMC,002230.000,A,3037.3398,N,09620.2443,W,0.00,,041008,,,A*66
$GPGGA,002231.000,3037.3398,N,09620.2443,W,1,08,1.0,98.4,M,-23.3,M,,0000*55
$GPRMC,002231.000,A,3037.3398,N,09620.2443,W,0.00,,041008,,,A*67
$GPGGA,002232.000,3037.3398,N,09620.2443,W,1,08,1.0,98.4,M,-23.3,M,,0000*56
$GPRMC,002232.000,A,3037.3398,N,09620.2443,W,0.00,,041008,,,A*64
$GPGGA,002233.000,3037.3398,N,09620.2443,W,1,08,1.0,98.4,M,-23.3,M,,0000*57
$GPRMC,002233.000,A,3037.3398,N,09620.2443,W,0.00,,041008,,,A*65
$GPGGA,002234.000,3037.3398,N,09620.2443,W,1,08,1.0,98.4,M,-23.3,M,,0000*50
$GPRMC,002234.000,A,3037.3398,N,09620.2443,W,0.00,,041008,,,A*62
$GPGGA,002235.000,3037.3398,N,09620.2443,W,1,08,1.0,98.4,M,-23.3,M,,0000*51
$GPRMC,002235.000,A,3037.3398,N,09620.2443,W,0.00,,041008,,,A*63
$GPGGA,002236.000,3037.3398,N,09620.2443,W,1,08,1.0,98.4,M,-23.3,M,,0000*52
$GPRMC,002236.000,A,3037.3398,N,09620.2443,W,0.00,,041008,,,A*60
$GPGGA,002237.000,3037.3398,N,09620.2443,W,1,08,1.0,98.4,M,-23.3,M,,0000*53
$GPRMC,002237.000,A,3037.3398,N,09620.2443,W,0.00,,041008,,,A*61
$GPGGA,002238.000,3037.3398,N,09620.2443,W,1,08,1.0,98.4,M,-23.3,M,,0000*5C
$GPRMC,002238.000,A,3037.3398,N,09620.2443,W,0.00,,041008,,,A*6E
$GPGGA,002239.000,3037.3398,N,09620.2443,W,1,08,1.0,98.4,M,-23.3,M,,0000*5D
$GPRMC,002239.000,A,3037.3398,N,09620.2443,W,0.00,,041008,,,A*6F
$GPGGA,002240.000,3037.3398,N,09620.2443,W,1,08,1.0,98.4,M,-23.3,M,,0000*53
$GPRMC,002240.000,A,3037.3398,N,09620.2443,W,0.00,,041008,,,A*61
$GPGGA,002241.000,3037.3398,N,09620.2443,W,1,08,1.0,98.4,M,-23.3,M,,0000*52
$GPRMC,002241.000,A,3037.3398,N,09620.2443,W,0.00,,041008,,,A*60
$GPGGA,002242.000,3037.3398,N,09620.2443,W,1,08,1.0,98.4,M,-23.3,M,,0000*51
$GPRMC,002242.000,A,3037.3398,N,09620.2443,W,0.00,,041008,,,A*63
$GPGGA,002243.000,3037.3398,N,09620.2443,W,1,08,1.0,98.4,M,-23.3,M,,0000*50
$GPRMC,002243.000,A,3037.3398,N,09620.2443,W,0.00,,041008,,,A*62
$GPGGA,002244.000,3037.3398,N,09620.2443,W,1,08,1.0,98.4,M,-23.3,M,,0000*57
$GPRMC,002244.000,A,3037.3398,N,09620.2443,W,0.00,,041008,,,A*65
$GPGGA,002245.000,3037.3398,N,09620.2443,W,1,08,1.0,98.4,M,-23.3,M,,0000*56
$GPRMC,002245.000,A,3037.3398,N,09620.2443,W,0.00,,041008,,,A*64
$GPGGA,002246.000,3037.3398,N,09620.2443,W,1,08,1.0,98.4,M,-23.3,M,,0000*55
$GPRMC,002246.000,A,3037.3398,N,09620.2443,W,0.00,,041008,,,A*67
$GPGGA,002247.000,3037.3398,N,09620.2443,W,1,08,1.0,98.4,M,-23.3,M,,0000*54
$GPRMC,002247.000,A,3037.3398,N,09620.2443,W,0.00,,041008,,,A*66
$GPGGA,002248.000,3037.3398,N,09620.2443,W,1,08,1.0,98.4,M,-23.3,M,,0000*5B
$GPRMC,002248.000,A,3037.3398,N,09620.2443,W,0.00,,041008,,,A*69
$GPGGA,002249.000,3037.3398,N,09620.2443,W,1,08,1.0,98.4,M,-23.3,M,,0000*5A
$GPRMC,002249.000,A,3037.3398,N,09620.2443,W,0.00,,041008,,,A*68
$GPGGA,002250.000,3037.3398,N,09620.2443,W,1,08,1.0,98.4,M,-23.3,M,,0000*52
$GPRMC,002250.000,A,3037.3398,N,09620.2443,W,0.00,,041008,,,A*60
$GPGGA,002251.000,3037.3398,N,09620.2443,W,1,08,1.0,98.4,M,-23.3,M,,0000*53
$GPRMC,002251.000,A,3037.3398,N,09620.2443,W,0.00,,041008,,,A*61
$GPGGA,002252.000,3037.3398,N,09620.2443,W,1,08,1.0,98.4,M,-23.3,M,,0000*50
$GPRMC,002252.000,A,3037.3398,N,09620.2443,W,0.00,,041008,,,A*62
$GPGGA,002253.000,3037.3398,N,09620.2443,W,1,08,1.0,98.4,M,-23.3,M,,0000*51
$GPRMC,002253.000,A,3037.3398,N,09620.2443,W,0.00,,041008,,,A*63
$GPGGA,002254.000,3037.3398,N,09620.2443,W,1,08,1.0,98.4,M,-23.3,M,,0000*56
$GPRMC,002254.000,A,3037.3398,N,09620.2443,W,0.00,,041008,,,A*64
$GPGGA,002255.000,3037.3398,N,09620.2443,W,1,08,1.0,98.4,M,-23.3,M,,0000*57
$GPRMC,002255.000,A,3037.3398,N,09620.2443,W,0.00,,041008,,,A*65
$GPGGA,002256.000,3037.3398,N,09620.2443,W,1,08,1.0,98.4,M,-23.3,M,,0000*54
$GPRMC,002256.000,A,3037.3398,N,09620.2443,W,0.00,,041008,,,A*66
$GPGGA,002257.000,3037.3398,N,09620.2443,W,1,08,1.0,98.4,M,-23.3,M,,0000*55
$GPRMC,002257.000,A,3037.3398,N,09620.2443,W,0.00,,041008,,,A*67
$GPGGA,002258.000,3037.3398,N,09620.2443,W,1,08,1.0,98.4,M,-23.3,M,,0000*5A
$GPRMC,002258.000,A,3037.3398,N,09620.2443,W,0.00,,041008,,,A*68
$GPGGA,002259.000,3037.3398,N,09620.2443,W,1,08,1.0,98.4,M,-23.3,M,,0000*5B
$GPRMC,002259.000,A,3037.3398,N,09620.2443,W,0.00,,041008,,,A*69
$GPGGA,002300.000,3037.3398,N,09620.2443,W,1,08,1.0,98.4,M,-23.3,M,,0000*56
$GPRMC,002300.000,A,3037.3398,N,09620.2443,W,0.00,,041008,,,A*64
$GPGGA,002301.000,3037.3398,N,09620.2443,W,1,08,1.0,98.4,M,-23.3,M,,0000*57
$GPRMC,002301.000,A,3037.3398,N,09620.2443,W,0.00,,041008,,,A*65
$GPGGA,002302.000,3037.3398,N,09620.2443,W,1,08,1.0,98.4,M,-23.3,M,,0000*54
$GPRMC,002302.000,A,3037.3398,N,09620.2443,W,0.00,,041008,,,A*66
$GPGGA,002303.000,3037.3398,N,09620.2443,W,1,08,1.0,98.4,M,-23.3,M,,0000*55
$GPRMC,002303.000,A,3037.3398,N,09620.2443,W,0.00,,041008,,,A*67
$GPGGA,002304.000,3037.3398,N,09620.2443,W,1,08,1.0,98.4,M,-23.3,M,,0000*52
$GPRMC,002304.000,A,3037.3398,N,09620.2443,W,0.00,,041008,,,A*60
$GPGGA,002305.000,3037.3398,N,09620.2443,W,1,08,1.0,98.4,M,-23.3,M,,0000*53
$GPRMC,002305.000,A,3037.3398,N,09620.2443,W,0.00,,041008,,,A*61
$GPGGA,002306.000,3037.3398,N,09620.2443,W,1,08,1.0,98.4,M,-23.3,M,,0000*50
$GPRMC,002306.000,A,3037.3398,N,09620.2443,W,0.00,,041008,,,A*62
$GPGGA,002307.000,3037.3398,N,09620.2443,W,1,08,1.0,98.4,M,-23.3,M,,0000*51
$GPRMC,002307.000,A,3037.3398,N,09620.2443,W,0.00,,041008,,,A*63
$GPGGA,002308.000,3037.3398,N,09620.2443,W,1,08,1.0,98.4,M,-23.3,M,,0000*5E
$GPRMC,002308.000,A,3037.3398,N,09620.2443,W,0.00,,041008,,,A*6C
$GPGGA,002309.000,3037.3398,N,09620.2443,W,1,08,1.0,98.4,M,-23.3,M,,0000*5F
$GPRMC,002309.000,A,3037.3398,N,09620.2443,W,0.00,,041008,,,A*6D
$GPGGA,002310.000,3037.3398,N,09620.2443,W,1,08,1.0,98.4,M,-23.3,M,,0000*57
$GPRMC,002310.000,A,3037.3398,N,09620.2443,W,0.00,,041008,,,A*65
$GPGGA,002311.000,3037.3398,N,09620.2443,W,1,08,1.0,98.4,M,-23.3,M,,0000*56
$GPRMC,002311.000,A,3037.3398,N,09620.2443,W,0.00,,041008,,,A*64
$GPGGA,002312.000,3037.3398,N,09620.2443,W,1,08,1.0,98.4,M,-23.3,M,,0000*55
$GPRMC,002312.000,A,3037.3398,N,09620.2443,W,0.00,,041008,,,A*67
$GPGGA,002313.000,3037.3398,N,09620.2443,W,1,08,1.0,98.4,M,-23.3,M,,0000*54
$GPRMC,002313.000,A,3037.3398,N,09620.2443,W,0.00,,041008,,,A*66
$GPGGA,002314.000,3037.3398,N,09620.2443,W,1,08,1.0,98.4,M,-23.3,M,,0000*53
$GPRMC,002314.000,A,3037.3398,N,09620.2443,W,0.00,,041008,,,A*61
$GPGGA,002315.000,3037.3398,N,09620.2443,W,1,08,1.0,98.4,M,-23.3,M,,0000*52
$GPRMC,002315.000,A,3037.3398,N,09620.2443,W,0.00,,041008,,,A*60
$GPGGA,002316.000,3037.3398,N,09620.2443,W,1,08,1.0,98.4,M,-23.3,M,,0000*51
$GPRMC,002316.000,A,3037.3398,N,09620.2443,W,0.00,,041008,,,A*63
$GPGGA,002317.000,3037.3398,N,09620.2443,W,1,08,1.0,98.4,M,-23.3,M,,0000*50
$GPRMC,002317.000,A,3037.3398,N,09620.2443,W,0.00,,041008,,,A*62
$GPGGA,002318.000,3037.3398,N,09620.2443,W,1,08,1.0,98.4,M,-23.3,M,,0000*5F
$GPRMC,002318.000,A,3037.3398,N,09620.2443,W,0.00,,041008,,,A*6D
$GPGGA,002319.000,3037.3398,N,09620.2443,W,1,08,1.0,98.4,M,-23.3,M,,0000*5E
$GPRMC,002319.000,A,3037.3398,N,09620.2443,W,0.00,,041008,,,A*6C
$GPGGA,002320.000,3037.3398,N,09620.2443,W,1,08,1.0,98.4,M,-23.3,M,,0000*54
$GPRMC,002320.000,A,3037.3398,N,09620.2443,W,0.00,,041008,,,A*66
$GPGGA,002321.000,3037.3398,N,09620.2443,W,1,08,1.0,98.4,M,-23.3,M,,0000*55
$GPRMC,002321.000,A,3037.3398,N,09620.2443,W,0.00,,041008,,,A*67
$GPGGA,002322.000,3037.3398,N,09620.2443,W,1,08,1.0,98.4,M,-23.3,M,,0000*56
$GPRMC,002322.000,A,3037.3398,N,09620.2443,W,0.00,,041008,,,A*64
$GPGGA,002323.000,3037.3398,N,09620.2443,W,1,08,1.0,98.4,M,-23.3,M,,0000*57
$GPRMC,002323.000,A,3037.3398,N,09620.2443,W,0.00,,041008,,,A*65
$GPGGA,002324.000,3037.3398,N,09620.2443,W,1,08,1.0,98.4,M,-23.3,M,,0000*50
$GPRMC,002324.000,A,3037.3398,N,09620.2443,W,0.00,,041008,,,A*62
$GPGGA,002325.000,3037.3398,N,09620.2443,W,1,08,1.0,98.4,M,-23.3,M,,0000*51
$GPRMC,002325.000,A,3037.3398,N,09620.2443,W,0.00,,041008,,,A*63
$GPGGA,002326.000,3037.3398,N,09620.2443,W,1,08,1.0,98.4,M,-23.3,M,,0000*52
$GPRMC,002326.000,A,3037.3398,N,09620.2443,W,0.00,,041008,,,A*60
$GPGGA,002327.000,3037.3398,N,09620.2443,W,1,08,1.0,98.4,M,-23.3,M,,0000*53
$GPRMC,002327.000,A,3037.3398,N,09620.2443,W,0.00,,041008,,,A*61
$GPGGA,002328.000,3037.3398,N,09620.2443,W,1,08,1.0,98.4,M,-23.3,M,,0000*5C
$GPRMC,002328.000,A,3037.3398,N,09620.2443,W,0.00,,041008,,,A*6E
$GPGGA,002329.000,3037.3398,N,09620.2443,W,1,08,1.0,98.4,M,-23.3,M,,0000*5D
$GPRMC,002329.000,A,3037.3398,N,09620.2443,W,0.00,,041008,,,A*6F
$GPGGA,002330.000,3037.3398,N,09620.2443,W,1,08,1.0,98.4,M,-23.3,M,,0000*55
$GPRMC,002330.000,A,3037.3398,N,09620.2443,W,0.00,,041008,,,A*67
$GPGGA,002331.000,3037.3398,N,09620.2443,W,1,08,1.0,98.4,M,-23.3,M,,0000*54
$GPRMC,002331.000,A,3037.3398,N,09620.2443,W,0.00,,041008,,,A*66
$GPGGA,002332.000,3037.3398,N,09620.2443,W,1,08,1.0,98.4,M,-23.3,M,,0000*57
$GPRMC,002332.000,A,3037.3398,N,09620.2443,W,0.00,,041008,,,A*65
$GPGGA,002333.000,3037.3398,N,09620.2443,W,1,08,1.0,98.4,M,-23.3,M,,0000*56
$GPRMC,002333.000,A,3037.3398,N,09620.2443,W,0.00,,041008,,,A*64
$GPGGA,002334.000,3037.3398,N,09620.2443,W,1,08,1.0,98.4,M,-23.3,M,,0000*51
$GPRMC,002334.000,A,3037.3398,N,09620.2443,W,0.00,,041008,,,A*63
$GPGGA,002335.000,3037.3398,N,09620.2443,W,1,08,1.0,98.4,M,-23.3,M,,0000*50
$GPRMC,002335.000,A,3037.3398,N,09620.2443,W,0.00,,041008,,,A*62
$GPGGA,002336.000,3037.3398,N,09620.2443,W,1,08,1.0,98.4,M,-23.3,M,,0000*53
$GPRMC,002336.000,A,3037.3398,N,09620.2443,W,0.00,,041008,,,A*61
$GPGGA,002337.000,3037.3398,N,09620.2443,W,1,08,1.0,98.4,M,-23.3,M,,0000*52
$GPRMC,002337.000,A,3037.3398,N,09620.2443,W,0.00,,041008,,,A*60
$GPGGA,002338.000,3037.3398,N,09620.2443,W,1,08,1.0,98.4,M,-23.3,M,,0000*5D
$GPRMC,002338.000,A,3037.3398,N,09620.2443,W,0.00,,041008,,,A*6F
$GPGGA,002339.000,3037.3398,N,09620.2443,W,1,08,1.0,98.4,M,-23.3,M,,0000*5C
$GPRMC,002339.000,A,3037.3398,N,09620.2443,W,0.00,,041008,,,A*6E
$GPGGA,002340.000,3037.3398,N,09620.2443,W,1,08,1.0,98.4,M,-23.3,M,,0000*52
$GPRMC,002340.000,A,3037.3398,N,09620.2443,W,0.00,,041008,,,A*60
$GPGGA,002341.000,3037.3417,N,09620.2418,W,1,08,1.0,96.8,M,-23.3,M,,0000*5F
$GPRMC,002341.000,A,3037.3417,N,09620.2418,W,3.29,127.41,041008,,,A*78
$GPGGA,002342.000,3037.3410,N,09620.2407,W,1,08,1.0,96.8,M,-23.3,M,,0000*55
$GPRMC,002342.000,A,3037.3410,N,09620.2407,W,5.17,121.57,041008,,,A*78
$GPGGA,002343.000,3037.3401,N,09620.2391,W,1,08,1.0,96.7,M,-23.3,M,,0000*53
$GPRMC,002343.000,A,3037.3401,N,09620.2391,W,6.28,125.11,041008,,,A*78
$GPGGA,002344.000,3037.3389,N,09620.2373,W,1,08,1.0,96.7,M,-23.3,M,,0000*5F
$GPRMC,002344.000,A,3037.3389,N,09620.2373,W,7.98,128.57,041008,,,A*71
$GPGGA,002345.000,3037.3373,N,09620.2352,W,1,08,1.0,96.7,M,-23.3,M,,0000*58
$GPRMC,002345.000,A,3037.3373,N,09620.2352,W,9.38,132.28,041008,,,A*71
$GPGGA,002346.000,3037.3354,N,09620.2329,W,1,08,1.0,96.7,M,-23.3,M,,0000*52
$GPRMC,002346.000,A,3037.3354,N,09620.2329,W,10.14,135.30,041008,,,A*43
$GPGGA,002347.000,3037.3333,N,09620.2306,W,1,08,1.0,96.7,M,-23.3,M,,0000*5F
$GPRMC,002347.000,A,3037.3333,N,09620.2306,W,10.31,138.04,041008,,,A*43
$GPGGA,002348.000,3037.3311,N,09620.2284,W,1,08,1.0,96.6,M,-23.3,M,,0000*5A
$GPRMC,002348.000,A,3037.3311,N,09620.2284,W,10.41,138.55,041008,,,A*44
$GPGGA,002349.000,3037.3289,N,09620.2261,W,1,08,1.0,96.6,M,-23.3,M,,0000*50
$GPRMC,002349.000,A,3037.3289,N,09620.2261,W,10.52,136.11,041008,,,A*42
$GPGGA,002350.000,3037.3269,N,09620.2236,W,1,08,1.0,96.5,M,-23.3,M,,0000*57
$GPRMC,002350.000,A,3037.3269,N,09620.2236,W,10.62,132.19,041008,,,A*49
$GPGGA,002351.000,3037.3249,N,09620.2210,W,1,08,1.0,96.5,M,-23.3,M,,0000*50
$GPRMC,002351.000,A,3037.3249,N,09620.2210,W,10.71,130.05,041008,,,A*43
$GPGGA,002352.000,3037.3229,N,09620.2184,W,1,08,1.0,96.5,M,-23.3,M,,0000*5B
$GPRMC,002352.000,A,3037.3229,N,09620.2184,W,10.76,131.41,041008,,,A*4E
$GPGGA,002353.000,3037.3209,N,09620.2159,W,1,08,1.0,96.4,M,-23.3,M,,0000*59
$GPRMC,002353.000,A,3037.3209,N,09620.2159,W,10.30,136.35,041008,,,A*4B
$GPGGA,002354.000,3037.3187,N,09620.2140,W,1,08,1.0,96.4,M,-23.3,M,,0000*53
$GPRMC,002354.000,A,3037.3187,N,09620.2140,W,9.12,148.50,041008,,,A*73
$GPGGA,002355.000,3037.3165,N,09620.2129,W,1,08,1.0,96.3,M,-23.3,M,,0000*56
$GPRMC,002355.000,A,3037.3165,N,09620.2129,W,7.84,166.26,041008,,,A*7D
$GPGGA,002356.000,3037.3145,N,09620.2128,W,1,08,1.0,96.3,M,-23.3,M,,0000*56
$GPRMC,002356.000,A,3037.3145,N,09620.2128,W,6.98,185.26,041008,,,A*7C
$GPGGA,002357.000,3037.3127,N,09620.2133,W,1,08,1.0,96.2,M,-23.3,M,,0000*58
$GPRMC,002357.000,A,3037.3127,N,09620.2133,W,6.46,204.17,041008,,,A*78
$GPGGA,002358.000,3037.3113,N,09620.2144,W,1,08,1.0,96.2,M,-23.3,M,,0000*50
$GPRMC,002358.000,A,3037.3113,N,09620.2144,W,5.71,225.11,041008,,,A*72
$GPGGA,002359.000,3037.3104,N,09620.2159,W,1,08,1.0,96.2,M,-23.3,M,,0000*5B
$GPRMC,002359.000,A,3037.3104,N,09620.2159,W,5.51,246.04,041008,,,A*7A
$GPGGA,002400.000,3037.3101,N,09620.2176,W,1,08,1.0,96.2,M,-23.3,M,,0000*58
$GPRMC,002400.000,A,3037.3101,N,09620.2176,W,5.55,265.84,041008,,,A*74
$GPGGA,002401.000,3037.3102,N,09620.2195,W,1,08,1.0,96.2,M,-23.3,M,,0000*57
$GPRMC,002401.000,A,3037.3102,N,09620.2195,W,5.85,282.52,041008,,,A*74
$GPGGA,002402.000,3037.3107,N,09620.2214,W,1,08,1.0,96.3,M,-23.3,M,,0000*5A
$GPRMC,002402.000,A,3037.3107,N,09620.2214,W,6.45,294.01,041008,,,A*76
$GPGGA,002403.000,3037.3116,N,09620.2233,W,1,08,1.0,96.3,M,-23.3,M,,0000*5E
$GPRMC,002403.000,A,3037.3116,N,09620.2233,W,6.93,300.62,041008,,,A*70
$GPGGA,002404.000,3037.3128,N,09620.2253,W,1,08,1.0,96.4,M,-23.3,M,,0000*55
$GPRMC,002404.000,A,3037.3128,N,09620.2253,W,7.69,307.27,041008,,,A*7E
$GPGGA,002405.000,3037.3142,N,09620.2272,W,1,08,1.0,96.4,M,-23.3,M,,0000*5B
$GPRMC,002405.000,A,3037.3142,N,09620.2272,W,7.87,313.86,041008,,,A*7E
$GPGGA,002406.000,3037.3157,N,09620.2290,W,1,08,1.0,96.5,M,-23.3,M,,0000*51
$GPRMC,002406.000,A,3037.3157,N,09620.2290,W,7.53,315.32,041008,,,A*75
$GPGGA,002407.000,3037.3172,N,09620.2306,W,1,08,1.0,96.6,M,-23.3,M,,0000*5A
$GPRMC,002407.000,A,3037.3172,N,09620.2306,W,7.16,315.77,041008,,,A*7D
$GPGGA,002408.000,3037.3186,N,09620.2322,W,1,08,1.0,96.7,M,-23.3,M,,0000*59
$GPRMC,002408.000,A,3037.3186,N,09620.2322,W,6.79,315.57,041008,,,A*75
$GPGGA,002409.000,3037.3199,N,09620.2337,W,1,08,1.0,96.8,M,-23.3,M,,0000*5D
$GPRMC,002409.000,A,3037.3199,N,09620.2337,W,6.41,315.05,041008,,,A*72
$GPGGA,002410.000,3037.3212,N,09620.2352,W,1,08,1.0,96.9,M,-23.3,M,,0000*57
$GPRMC,002410.000,A,3037.3212,N,09620.2352,W,6.00,315.36,041008,,,A*7C
$GPGGA,002411.000,3037.3222,N,09620.2364,W,1,08,1.0,97.0,M,-23.3,M,,0000*58
$GPRMC,002411.000,A,3037.3222,N,09620.2364,W,4.82,314.59,041008,,,A*7B
$GPGGA,002412.000,3037.3231,N,09620.2374,W,1,08,1.0,97.1,M,-23.3,M,,0000*59
$GPRMC,002412.000,A,3037.3231,N,09620.2374,W,3.73,315.08,041008,,,A*77
$GPGGA,002413.000,3037.3237,N,09620.2381,W,1,08,1.0,97.2,M,-23.3,M,,0000*57
$GPRMC,002413.000,A,3037.3237,N,09620.2381,W,2.67,315.15,041008,,,A*72
$GPGGA,002414.000,3037.3241,N,09620.2386,W,1,08,1.0,97.2,M,-23.3,M,,0000*56
$GPRMC,002414.000,A,3037.3241,N,09620.2386,W,1.54,316.41,041008,,,A*72
$GPGGA,002415.000,3037.3243,N,09620.2388,W,1,08,1.0,97.2,M,-23.3,M,,0000*5B
$GPRMC,002415.000,A,3037.3243,N,09620.2388,W,0.00,,041008,,,A*60
$GPGGA,002416.000,3037.3243,N,09620.2388,W,1,08,1.0,97.2,M,-23.3,M,,0000*58
$GPRMC,002416.000,A,3037.3243,N,09620.2388,W,0.00,,041008,,,A*63
$GPGGA,002417.000,3037.3243,N,09620.2388,W,1,08,1.0,97.2,M,-23.3,M,,0000*59
$GPRMC,002417.000,A,3037.3243,N,09620.2388,W,0.00,,041008,,,A*62
$GPGGA,002418.000,3037.3243,N,09620.2388,W,1,08,1.0,97.2,M,-23.3,M,,0000*56
$GPRMC,002418.000,A,3037.3243,N,09620.2388,W,0.00,,041008,,,A*6D
$GPGGA,002419.000,3037.3243,N,09620.2388,W,1,08,1.0,97.2,M,-23.3,M,,0000*57
$GPRMC,002419.000,A,3037.3243,N,09620.2388,W,0.00,,041008,,,A*6C
$GPGGA,002420.000,3037.3243,N,09620.2388,W,1,08,1.0,97.2,M,-23.3,M,,0000*5D
$GPRMC,002420.000,A,3037.3243,N,09620.2388,W,0.00,,041008,,,A*66
$GPGGA,002421.000,3037.3243,N,09620.2388,W,1,08,1.0,97.2,M,-23.3,M,,0000*5C
$GPRMC,002421.000,A,3037.3243,N,09620.2388,W,0.00,,041008,,,A*67
$GPGGA,002422.000,3037.3243,N,09620.2388,W,1,08,1.0,97.2,M,-23.3,M,,0000*5F
$GPRMC,002422.000,A,3037.3243,N,09620.2388,W,0.00,,041008,,,A*64
$GPGGA,002423.000,3037.3243,N,09620.2388,W,1,08,1.0,97.2,M,-23.3,M,,0000*5E
$GPRMC,002423.000,A,3037.3243,N,09620.2388,W,0.00,,041008,,,A*65
$GPGGA,002424.000,3037.3243,N,09620.2388,W,1,08,1.0,97.2,M,-23.3,M,,0000*59
$GPRMC,002424.000,A,3037.3243,N,09620.2388,W,0.00,,041008,,,A*62
$GPGGA,002425.000,3037.3243,N,09620.2388,W,1,08,1.0,97.2,M,-23.3,M,,0000*58
$GPRMC,002425.000,A,3037.3243,N,09620.2388,W,0.00,,041008,,,A*63
$GPGGA,002426.000,3037.3243,N,09620.2388,W,1,08,1.0,97.2,M,-23.3,M,,0000*5B
$GPRMC,002426.000,A,3037.3243,N,09620.2388,W,0.00,,041008,,,A*60
$GPGGA,002427.000,3037.3243,N,09620.2388,W,1,08,1.0,97.2,M,-23.3,M,,0000*5A
$GPRMC,002427.000,A,3037.3243,N,09620.2388,W,0.00,,041008,,,A*61
$GPGGA,002428.000,3037.3243,N,09620.2388,W,1,08,1.0,97.2,M,-23.3,M,,0000*55
$GPRMC,002428.000,A,3037.3243,N,09620.2388,W,0.00,,041008,,,A*6E
$GPGGA,002429.000,3037.3243,N,09620.2388,W,1,08,1.0,97.2,M,-23.3,M,,0000*54
$GPRMC,002429.000,A,3037.3243,N,09620.2388,W,0.00,,041008,,,A*6F
$GPGGA,002430.000,3037.3243,N,09620.2388,W,1,08,1.0,97.2,M,-23.3,M,,0000*5C
$GPRMC,002430.000,A,3037.3243,N,09620.2388,W,0.00,,041008,,,A*67
$GPGGA,002431.000,3037.3243,N,09620.2388,W,1,08,1.0,97.2,M,-23.3,M,,0000*5D
$GPRMC,002431.000,A,3037.3243,N,09620.2388,W,0.00,,041008,,,A*66
$GPGGA,002432.000,3037.3243,N,09620.2388,W,1,08,1.0,97.2,M,-23.3,M,,0000*5E
$GPRMC,002432.000,A,3037.3243,N,09620.2388,W,0.00,,041008,,,A*65
$GPGGA,002433.000,3037.3243,N,09620.2388,W,1,08,1.0,97.2,M,-23.3,M,,0000*5F
$GPRMC,002433.000,A,3037.3243,N,09620.2388,W,0.00,,041008,,,A*64
$GPGGA,002434.000,3037.3243,N,09620.2388,W,1,08,1.0,97.2,M,-23.3,M,,0000*58
$GPRMC,002434.000,A,3037.3243,N,09620.2388,W,0.00,,041008,,,A*63
$GPGGA,002435.000,3037.3243,N,09620.2388,W,1,08,1.0,97.2,M,-23.3,M,,0000*59
$GPRMC,002435.000,A,3037.3243,N,09620.2388,W,0.00,,041008,,,A*62
$GPGGA,002436.000,3037.3243,N,09620.2388,W,1,08,1.0,97.2,M,-23.3,M,,0000*5A
$GPRMC,002436.000,A,3037.3243,N,09620.2388,W,0.00,,041008,,,A*61
$GPGGA,002437.000,3037.3243,N,09620.2388,W,1,08,1.0,97.2,M,-23.3,M,,0000*5B
$GPRMC,002437.000,A,3037.3243,N,09620.2388,W,0.00,,041008,,,A*60
$GPGGA,002438.000,3037.3243,N,09620.2388,W,1,08,1.0,97.2,M,-23.3,M,,0000*54
$GPRMC,002438.000,A,3037.3243,N,09620.2388,W,0.00,,041008,,,A*6F
$GPGGA,002439.000,3037.3243,N,09620.2388,W,1,08,1.0,97.2,M,-23.3,M,,0000*55
$GPRMC,002439.000,A,3037.3243,N,09620.2388,W,0.00,,041008,,,A*6E
$GPGGA,002440.000,3037.3243,N,09620.2388,W,1,08,1.0,97.2,M,-23.3,M,,0000*5B
$GPRMC,002440.000,A,3037.3243,N,09620.2388,W,0.00,,041008,,,A*60
$GPGGA,002441.000,3037.3243,N,09620.2388,W,1,08,1.0,97.2,M,-23.3,M,,0000*5A
$GPRMC,002441.000,A,3037.3243,N,09620.2388,W,0.00,,041008,,,A*61
$GPGGA,002442.000,3037.3243,N,09620.2388,W,1,08,1.0,97.2,M,-23.3,M,,0000*59
$GPRMC,002442.000,A,3037.3243,N,09620.2388,W,0.00,,041008,,,A*62
$GPGGA,002443.000,3037.3243,N,09620.2388,W,1,08,1.0,97.2,M,-23.3,M,,0000*58
$GPRMC,002443.000,A,3037.3243,N,09620.2388,W,0.00,,041008,,,A*63
$GPGGA,002444.000,3037.3243,N,09620.2388,W,1,08,1.0,97.2,M,-23.3,M,,0000*5F
$GPRMC,002444.000,A,3037.3243,N,09620.2388,W,0.00,,041008,,,A*64
$GPGGA,002445.000,3037.3243,N,09620.2388,W,1,08,1.0,97.2,M,-23.3,M,,0000*5E
$GPRMC,002445.000,A,3037.3243,N,09620.2388,W,0.00,,041008,,,A*65
$GPGGA,002446.000,3037.3243,N,09620.2388,W,1,09,0.9,97.2,M,-23.3,M,,0000*54
$GPRMC,002446.000,A,3037.3243,N,09620.2388,W,0.00,,041008,,,A*66
$GPGGA,002447.000,3037.3243,N,09620.2388,W,1,09,0.9,97.2,M,-23.3,M,,0000*55
$GPRMC,002447.000,A,3037.3243,N,09620.2388,W,0.00,,041008,,,A*67
$GPGGA,002448.000,3037.3243,N,09620.2388,W,1,09,0.9,97.2,M,-23.3,M,,0000*5A
$GPRMC,002448.000,A,3037.3243,N,09620.2388,W,0.00,,041008,,,A*68
$GPGGA,002449.000,3037.3243,N,09620.2388,W,1,09,0.9,97.2,M,-23.3,M,,0000*5B
$GPRMC,002449.000,A,3037.3243,N,09620.2388,W,0.00,,041008,,,A*69
$GPGGA,002450.000,3037.3243,N,09620.2388,W,1,09,0.9,97.2,M,-23.3,M,,0000*53
$GPRMC,002450.000,A,3037.3243,N,09620.2388,W,0.00,,041008,,,A*61
$GPGGA,002451.000,3037.3243,N,09620.2388,W,1,09,0.9,97.2,M,-23.3,M,,0000*52
$GPRMC,002451.000,A,3037.3243,N,09620.2388,W,0.00,,041008,,,A*60
$GPGGA,002452.000,3037.3243,N,09620.2388,W,1,09,0.9,97.2,M,-23.3,M,,0000*51
$GPRMC,002452.000,A,3037.3243,N,09620.2388,W,0.00,,041008,,,A*63
$GPGGA,002453.000,3037.3243,N,09620.2388,W,1,09,0.9,97.2,M,-23.3,M,,0000*50
$GPRMC,002453.000,A,3037.3243,N,09620.2388,W,0.00,,041008,,,A*62
$GPGGA,002454.000,3037.3243,N,09620.2388,W,1,09,0.9,97.2,M,-23.3,M,,0000*57
$GPRMC,002454.000,A,3037.3243,N,09620.2388,W,0.00,,041008,,,A*65
$GPGGA,002455.000,3037.3243,N,09620.2388,W,1,09,0.9,97.2,M,-23.3,M,,0000*56
$GPRMC,002455.000,A,3037.3243,N,09620.2388,W,0.00,,041008,,,A*64
$GPGGA,002456.000,3037.3243,N,09620.2388,W,1,09,0.9,97.2,M,-23.3,M,,0000*55
$GPRMC,002456.000,A,3037.3243,N,09620.2388,W,0.00,,041008,,,A*67
$GPGGA,002457.000,3037.3243,N,09620.2388,W,1,09,0.9,97.2,M,-23.3,M,,0000*54
$GPRMC,002457.000,A,3037.3243,N,09620.2388,W,0.00,,041008,,,A*66
$GPGGA,002458.000,3037.3243,N,09620.2388,W,1,09,0.9,97.2,M,-23.3,M,,0000*5B
$GPRMC,002458.000,A,3037.3243,N,09620.2388,W,0.00,,041008,,,A*69
$GPGGA,002459.000,3037.3243,N,09620.2388,W,1,09,0.9,97.2,M,-23.3,M,,0000*5A
$GPRMC,002459.000,A,3037.3243,N,09620.2388,W,0.00,,041008,,,A*68
$GPGGA,002500.000,3037.3243,N,09620.2388,W,1,09,0.9,97.2,M,-23.3,M,,0000*57
$GPRMC,002500.000,A,3037.3243,N,09620.2388,W,0.00,,041008,,,A*65
$GPGGA,002501.000,3037.3243,N,09620.2388,W,1,09,0.9,97.2,M,-23.3,M,,0000*56
$GPRMC,002501.000,A,3037.3243,N,09620.2388,W,0.00,,041008,,,A*64
$GPGGA,002502.000,3037.3243,N,09620.2388,W,1,09,0.9,97.2,M,-23.3,M,,0000*55
$GPRMC,002502.000,A,3037.3243,N,09620.2388,W,0.00,,041008,,,A*67
$GPGGA,002503.000,3037.3243,N,09620.2388,W,1,09,0.9,97.2,M,-23.3,M,,0000*54
$GPRMC,002503.000,A,3037.3243,N,09620.2388,W,0.00,,041008,,,A*66
$GPGGA,002504.000,3037.3243,N,09620.2388,W,1,09,0.9,97.2,M,-23.3,M,,0000*53
$GPRMC,002504.000,A,3037.3243,N,09620.2388,W,0.00,,041008,,,A*61
$GPGGA,002505.000,3037.3243,N,09620.2388,W,1,09,0.9,97.2,M,-23.3,M,,0000*52
$GPRMC,002505.000,A,3037.3243,N,09620.2388,W,0.00,,041008,,,A*60
$GPGGA,002506.000,3037.3243,N,09620.2388,W,1,09,0.9,97.2,M,-23.3,M,,0000*51
$GPRMC,002506.000,A,3037.3243,N,09620.2388,W,0.00,,041008,,,A*63
$GPGGA,002507.000,3037.3243,N,09620.2388,W,1,09,0.9,97.2,M,-23.3,M,,0000*50
$GPRMC,002507.000,A,3037.3243,N,09620.2388,W,0.00,,041008,,,A*62
$GPGGA,002508.000,3037.3243,N,09620.2388,W,1,09,0.9,97.2,M,-23.3,M,,0000*5F
$GPRMC,002508.000,A,3037.3243,N,09620.2388,W,0.00,,041008,,,A*6D
$GPGGA,002509.000,3037.3243,N,09620.2388,W,1,09,0.9,97.2,M,-23.3,M,,0000*5E
$GPRMC,002509.000,A,3037.3243,N,09620.2388,W,0.00,,041008,,,A*6C
$GPGGA,002510.000,3037.3243,N,09620.2388,W,1,09,0.9,97.2,M,-23.3,M,,0000*56
$GPRMC,002510.000,A,3037.3243,N,09620.2388,W,0.00,,041008,,,A*64
$GPGGA,002511.000,3037.3243,N,09620.2388,W,1,09,0.9,97.2,M,-23.3,M,,0000*57
$GPRMC,002511.000,A,3037.3243,N,09620.2388,W,0.00,,041008,,,A*65
$GPGGA,002512.000,3037.3243,N,09620.2388,W,1,09,0.9,97.2,M,-23.3,M,,0000*54
$GPRMC,002512.000,A,3037.3243,N,09620.2388,W,0.00,,041008,,,A*66
$GPGGA,002513.000,3037.3243,N,09620.2388,W,1,09,0.9,97.2,M,-23.3,M,,0000*55
$GPRMC,002513.000,A,3037.3243,N,09620.2388,W,0.00,,041008,,,A*67
$GPGGA,002514.000,3037.3243,N,09620.2388,W,1,09,0.9,97.2,M,-23.3,M,,0000*52
$GPRMC,002514.000,A,3037.3243,N,09620.2388,W,0.00,,041008,,,A*60
$GPGGA,002515.000,3037.3243,N,09620.2388,W,1,09,0.9,97.2,M,-23.3,M,,0000*53
$GPRMC,002515.000,A,3037.3243,N,09620.2388,W,0.00,,041008,,,A*61
$GPGGA,002516.000,3037.3243,N,09620.2388,W,1,09,0.9,97.2,M,-23.3,M,,0000*50
$GPRMC,002516.000,A,3037.3243,N,09620.2388,W,0.00,,041008,,,A*62
$GPGGA,002517.000,3037.3243,N,09620.2388,W,1,09,0.9,97.2,M,-23.3,M,,0000*51
$GPRMC,002517.000,A,3037.3243,N,09620.2388,W,0.00,,041008,,,A*63
$GPGGA,002518.000,3037.3243,N,09620.2388,W,1,09,0.9,97.2,M,-23.3,M,,0000*5E
$GPRMC,002518.000,A,3037.3243,N,09620.2388,W,0.00,,041008,,,A*6C
$GPGGA,002519.000,3037.3243,N,09620.2388,W,1,09,0.9,97.2,M,-23.3,M,,0000*5F
$GPRMC,002519.000,A,3037.3243,N,09620.2388,W,0.00,,041008,,,A*6D
$GPGGA,002520.000,3037.3243,N,09620.2388,W,1,09,0.9,97.2,M,-23.3,M,,0000*55
$GPRMC,002520.000,A,3037.3243,N,09620.2388,W,0.00,,041008,,,A*67
$GPGGA,002521.000,3037.3243,N,09620.2388,W,1,09,0.9,97.2,M,-23.3,M,,0000*54
$GPRMC,002521.000,A,3037.3243,N,09620.2388,W,0.00,,041008,,,A*66
$GPGGA,002522.000,3037.3243,N,09620.2388,W,1,09,0.9,97.2,M,-23.3,M,,0000*57
$GPRMC,002522.000,A,3037.3243,N,09620.2388,W,0.00,,041008,,,A*65
$GPGGA,002523.000,3037.3243,N,09620.2388,W,1,09,0.9,97.2,M,-23.3,M,,0000*56
$GPRMC,002523.000,A,3037.3243,N,09620.2388,W,0.00,,041008,,,A*64
$GPGGA,002524.000,3037.3243,N,09620.2388,W,1,09,0.9,97.2,M,-23.3,M,,0000*51
$GPRMC,002524.000,A,3037.3243,N,09620.2388,W,0.00,,041008,,,A*63
$GPGGA,002525.000,3037.3243,N,09620.2388,W,1,09,0.9,97.2,M,-23.3,M,,0000*50
$GPRMC,002525.000,A,3037.3243,N,09620.2388,W,0.00,,041008,,,A*62
$GPGGA,002526.000,3037.3243,N,09620.2388,W,1,09,0.9,97.2,M,-23.3,M,,0000*53
$GPRMC,002526.000,A,3037.3243,N,09620.2388,W,0.00,,041008,,,A*61
$GPGGA,002527.000,3037.3243,N,09620.2388,W,1,09,0.9,97.2,M,-23.3,M,,0000*52
$GPRMC,002527.000,A,3037.3243,N,09620.2388,W,0.00,,041008,,,A*60
$GPGGA,002528.000,3037.3243,N,09620.2388,W,1,09,0.9,97.2,M,-23.3,M,,0000*5D
$GPRMC,002528.000,A,3037.3243,N,09620.2388,W,0.00,,041008,,,A*6F
$GPGGA,002529.000,3037.3243,N,09620.2388,W,1,09,0.9,97.2,M,-23.3,M,,0000*5C
$GPRMC,002529.000,A,3037.3243,N,09620.2388,W,0.00,,041008,,,A*6E
$GPGGA,002530.000,3037.3243,N,09620.2388,W,1,09,0.9,97.2,M,-23.3,M,,0000*54
$GPRMC,002530.000,A,3037.3243,N,09620.2388,W,0.00,,041008,,,A*66
$GPGGA,002531.000,3037.3243,N,09620.2388,W,1,09,0.9,97.2,M,-23.3,M,,0000*55
$GPRMC,002531.000,A,3037.3243,N,09620.2388,W,0.00,,041008,,,A*67
$GPGGA,002532.000,3037.3243,N,09620.2388,W,1,09,0.9,97.2,M,-23.3,M,,0000*56
$GPRMC,002532.000,A,3037.3243,N,09620.2388,W,0.00,,041008,,,A*64
$GPGGA,002533.000,3037.3243,N,09620.2388,W,1,09,0.9,97.2,M,-23.3,M,,0000*57
$GPRMC,002533.000,A,3037.3243,N,09620.2388,W,0.00,,041008,,,A*65
$GPGGA,002534.000,3037.3243,N,09620.2388,W,1,09,0.9,97.2,M,-23.3,M,,0000*50
$GPRMC,002534.000,A,3037.3243,N,09620.2388,W,0.00,,041008,,,A*62
$GPGGA,002535.000,3037.3243,N,09620.2388,W,1,09,0.9,97.2,M,-23.3,M,,0000*51
$GPRMC,002535.000,A,3037.3243,N,09620.2388,W,0.00,,041008,,,A*63
$GPGGA,002536.000,3037.3243,N,09620.2388,W,1,09,0.9,97.2,M,-23.3,M,,0000*52
$GPRMC,002536.000,A,3037.3243,N,09620.2388,W,0.00,,041008,,,A*60
$GPGGA,002537.000,3037.3243,N,09620.2388,W,1,09,0.9,97.2,M,-23.3,M,,0000*53
$GPRMC,002537.000,A,3037.3243,N,09620.2388,W,0.00,,041008,,,A*61
$GPGGA,002538.000,3037.3243,N,09620.2388,W,1,09,0.9,97.2,M,-23.3,M,,0000*5C
$GPRMC,002538.000,A,3037.3243,N,09620.2388,W,0.00,,041008,,,A*6E
$GPGGA,002539.000,3037.3243,N,09620.2388,W,1,09,0.9,97.2,M,-23.3,M,,0000*5D
$GPRMC,002539.000,A,3037.3243,N,09620.2388,W,0.00,,041008,,,A*6F
$GPGGA,002540.000,3037.3243,N,09620.2388,W,1,09,0.9,97.2,M,-23.3,M,,0000*53
$GPRMC,002540.000,A,3037.3243,N,09620.2388,W,0.00,,041008,,,A*61
$GPGGA,002541.000,3037.3243,N,09620.2388,W,1,09,0.9,97.2,M,-23.3,M,,0000*52
$GPRMC,002541.000,A,3037.3243,N,09620.2388,W,0.00,,041008,,,A*60
$GPGGA,002542.000,3037.3243,N,09620.2388,W,1,09,0.9,97.2,M,-23.3,M,,0000*51
$GPRMC,002542.000,A,3037.3243,N,09620.2388,W,0.00,,041008,,,A*63
$GPGGA,002543.000,3037.3243,N,09620.2388,W,1,09,0.9,97.2,M,-23.3,M,,0000*50
$GPRMC,002543.000,A,3037.3243,N,09620.2388,W,0.00,,041008,,,A*62
$GPGGA,002544.000,3037.3243,N,09620.2388,W,1,09,0.9,97.2,M,-23.3,M,,0000*57
$GPRMC,002544.000,A,3037.3243,N,09620.2388,W,0.00,,041008,,,A*65
$GPGGA,002545.000,3037.3243,N,09620.2388,W,1,09,0.9,97.2,M,-23.3,M,,0000*56
$GPRMC,002545.000,A,3037.3243,N,09620.2388,W,0.00,,041008,,,A*64
$GPGGA,002546.000,3037.3243,N,09620.2388,W,1,09,0.9,97.2,M,-23.3,M,,0000*55
$GPRMC,002546.000,A,3037.3243,N,09620.2388,W,0.00,,041008,,,A*67
$GPGGA,002547.000,3037.3243,N,09620.2388,W,1,09,0.9,97.2,M,-23.3,M,,0000*54
$GPRMC,002547.000,A,3037.3243,N,09620.2388,W,0.00,,041008,,,A*66
$GPGGA,002548.000,3037.3243,N,09620.2388,W,1,09,0.9,97.2,M,-23.3,M,,0000*5B
$GPRMC,002548.000,A,3037.3243,N,09620.2388,W,0.00,,041008,,,A*69
$GPGGA,002549.000,3037.3243,N,09620.2388,W,1,09,0.9,97.2,M,-23.3,M,,0000*5A
$GPRMC,002549.000,A,3037.3243,N,09620.2388,W,0.00,,041008,,,A*68
$GPGGA,002550.000,3037.3243,N,09620.2388,W,1,09,0.9,97.2,M,-23.3,M,,0000*52
$GPRMC,002550.000,A,3037.3243,N,09620.2388,W,0.00,,041008,,,A*60
$GPGGA,002551.000,3037.3243,N,09620.2388,W,1,09,0.9,97.2,M,-23.3,M,,0000*53
$GPRMC,002551.000,A,3037.3243,N,09620.2388,W,0.00,,041008,,,A*61
$GPGGA,002552.000,3037.3243,N,09620.2388,W,1,09,0.9,97.2,M,-23.3,M,,0000*50
$GPRMC,002552.000,A,3037.3243,N,09620.2388,W,0.00,,041008,,,A*62
$GPGGA,002553.000,3037.3243,N,09620.2388,W,1,09,0.9,97.2,M,-23.3,M,,0000*51
$GPRMC,002553.000,A,3037.3243,N,09620.2388,W,0.00,,041008,,,A*63
$GPGGA,002554.000,3037.3243,N,09620.2388,W,1,09,0.9,97.2,M,-23.3,M,,0000*56
$GPRMC,002554.000,A,3037.3243,N,09620.2388,W,0.00,,041008,,,A*64
$GPGGA,002555.000,3037.3243,N,09620.2388,W,1,09,0.9,97.2,M,-23.3,M,,0000*57
$GPRMC,002555.000,A,3037.3243,N,09620.2388,W,0.00,,041008,,,A*65
$GPGGA,002556.000,3037.3243,N,09620.2388,W,1,09,0.9,97.2,M,-23.3,M,,0000*54
$GPRMC,002556.000,A,3037.3243,N,09620.2388,W,0.00,,041008,,,A*66
$GPGGA,002557.000,3037.3243,N,09620.2388,W,1,08,0.9,97.2,M,-23.3,M,,0000*54
$GPRMC,002557.000,A,3037.3243,N,09620.2388,W,0.00,,041008,,,A*67
$GPGGA,002558.000,3037.3243,N,09620.2388,W,1,08,0.9,97.2,M,-23.3,M,,0000*5B
$GPRMC,002558.000,A,3037.3243,N,09620.2388,W,0.00,,041008,,,A*68
$GPGGA,002559.000,3037.3243,N,09620.2388,W,1,08,0.9,97.2,M,-23.3,M,,0000*5A
$GPRMC,002559.000,A,3037.3243,N,09620.2388,W,0.00,,041008,,,A*69
$GPGGA,002600.000,3037.3243,N,09620.2388,W,1,08,0.9,97.2,M,-23.3,M,,0000*55
$GPRMC,002600.000,A,3037.3243,N,09620.2388,W,0.00,,041008,,,A*66
$GPGGA,002601.000,3037.3243,N,09620.2388,W,1,08,0.9,97.2,M,-23.3,M,,0000*54
$GPRMC,002601.000,A,3037.3243,N,09620.2388,W,0.00,,041008,,,A*67
$GPGGA,002602.000,3037.3243,N,09620.2388,W,1,08,0.9,97.2,M,-23.3,M,,0000*57
$GPRMC,002602.000,A,3037.3243,N,09620.2388,W,0.00,,041008,,,A*64
$GPGGA,002603.000,3037.3243,N,09620.2388,W,1,08,0.9,97.2,M,-23.3,M,,0000*56
$GPRMC,002603.000,A,3037.3243,N,09620.2388,W,0.00,,041008,,,A*65
$GPGGA,002604.000,3037.3243,N,09620.2388,W,1,08,0.9,97.2,M,-23.3,M,,0000*51
$GPRMC,002604.000,A,3037.3243,N,09620.2388,W,0.00,,041008,,,A*62
$GPGGA,002605.000,3037.3243,N,09620.2388,W,1,08,0.9,97.2,M,-23.3,M,,0000*50
$GPRMC,002605.000,A,3037.3243,N,09620.2388,W,0.00,,041008,,,A*63
$GPGGA,002606.000,3037.3243,N,09620.2388,W,1,08,0.9,97.2,M,-23.3,M,,0000*53
$GPRMC,002606.000,A,3037.3243,N,09620.2388,W,0.00,,041008,,,A*60
$GPGGA,002607.000,3037.3243,N,09620.2388,W,1,08,0.9,97.2,M,-23.3,M,,0000*52
$GPRMC,002607.000,A,3037.3243,N,09620.2388,W,0.00,,041008,,,A*61
$GPGGA,002608.000,3037.3243,N,09620.2388,W,1,08,0.9,97.2,M,-23.3,M,,0000*5D
$GPRMC,002608.000,A,3037.3243,N,09620.2388,W,0.00,,041008,,,A*6E
$GPGGA,002609.000,3037.3243,N,09620.2388,W,1,08,0.9,97.2,M,-23.3,M,,0000*5C
$GPRMC,002609.000,A,3037.3243,N,09620.2388,W,0.00,,041008,,,A*6F
$GPGGA,002610.000,3037.3243,N,09620.2388,W,1,08,0.9,97.2,M,-23.3,M,,0000*54
$GPRMC,002610.000,A,3037.3243,N,09620.2388,W,0.00,,041008,,,A*67
$GPGGA,002611.000,3037.3243,N,09620.2388,W,1,08,0.9,97.2,M,-23.3,M,,0000*55
$GPRMC,002611.000,A,3037.3243,N,09620.2388,W,0.00,,041008,,,A*66
$GPGGA,002612.000,3037.3243,N,09620.2388,W,1,08,0.9,97.2,M,-23.3,M,,0000*56
$GPRMC,002612.000,A,3037.3243,N,09620.2388,W,0.00,,041008,,,A*65
$GPGGA,002613.000,3037.3243,N,09620.2388,W,1,08,0.9,97.2,M,-23.3,M,,0000*57
$GPRMC,002613.000,A,3037.3243,N,09620.2388,W,0.00,,041008,,,A*64
$GPGGA,002614.000,3037.3243,N,09620.2388,W,1,08,0.9,97.2,M,-23.3,M,,0000*50
$GPRMC,002614.000,A,3037.3243,N,09620.2388,W,0.00,,041008,,,A*63
$GPGGA,002615.000,3037.3243,N,09620.2388,W,1,08,0.9,97.2,M,-23.3,M,,0000*51
$GPRMC,002615.000,A,3037.3243,N,09620.2388,W,0.00,,041008,,,A*62
$GPGGA,002616.000,3037.3243,N,09620.2388,W,1,08,0.9,97.2,M,-23.3,M,,0000*52
$GPRMC,002616.000,A,3037.3243,N,09620.2388,W,0.00,,041008,,,A*61
$GPGGA,002617.000,3037.3243,N,09620.2388,W,1,08,0.9,97.2,M,-23.3,M,,0000*53
$GPRMC,002617.000,A,3037.3243,N,09620.2388,W,0.00,,041008,,,A*60
$GPGGA,002618.000,3037.3243,N,09620.2388,W,1,08,0.9,97.2,M,-23.3,M,,0000*5C
$GPRMC,002618.000,A,3037.3243,N,09620.2388,W,0.00,,041008,,,A*6F
$GPGGA,002619.000,3037.3243,N,09620.2388,W,1,09,0.9,97.2,M,-23.3,M,,0000*5C
$GPRMC,002619.000,A,3037.3243,N,09620.2388,W,0.00,,041008,,,A*6E
$GPGGA,002620.000,3037.3243,N,09620.2388,W,1,09,0.9,97.2,M,-23.3,M,,0000*56
$GPRMC,002620.000,A,3037.3243,N,09620.2388,W,0.00,,041008,,,A*64
$GPGGA,002621.000,3037.3243,N,09620.2388,W,1,09,0.9,97.2,M,-23.3,M,,0000*57
$GPRMC,002621.000,A,3037.3243,N,09620.2388,W,0.00,,041008,,,A*65
$GPGGA,002622.000,3037.3243,N,09620.2388,W,1,09,0.9,97.2,M,-23.3,M,,0000*54
$GPRMC,002622.000,A,3037.3243,N,09620.2388,W,0.00,,041008,,,A*66
$GPGGA,002623.000,3037.3243,N,09620.2388,W,1,09,0.9,97.2,M,-23.3,M,,0000*55
$GPRMC,002623.000,A,3037.3243,N,09620.2388,W,0.00,,041008,,,A*67
$GPGGA,002624.000,3037.3243,N,09620.2388,W,1,09,0.9,97.2,M,-23.3,M,,0000*52
$GPRMC,002624.000,A,3037.3243,N,09620.2388,W,0.00,,041008,,,A*60
$GPGGA,002625.000,3037.3243,N,09620.2388,W,1,09,0.9,97.2,M,-23.3,M,,0000*53
$GPRMC,002625.000,A,3037.3243,N,09620.2388,W,0.00,,041008,,,A*61
$GPGGA,002626.000,3037.3243,N,09620.2388,W,1,09,0.9,97.2,M,-23.3,M,,0000*50
$GPRMC,002626.000,A,3037.3243,N,09620.2388,W,0.00,,041008,,,A*62
$GPGGA,002627.000,3037.3243,N,09620.2388,W,1,09,0.9,97.2,M,-23.3,M,,0000*51
$GPRMC,002627.000,A,3037.3243,N,09620.2388,W,0.00,,041008,,,A*63
$GPGGA,002628.000,3037.3243,N,09620.2388,W,1,09,0.9,97.2,M,-23.3,M,,0000*5E
$GPRMC,002628.000,A,3037.3243,N,09620.2388,W,0.00,,041008,,,A*6C
$GPGGA,002629.000,3037.3243,N,09620.2388,W,1,09,0.9,97.2,M,-23.3,M,,0000*5F
$GPRMC,002629.000,A,3037.3243,N,09620.2388,W,0.00,,041008,,,A*6D
$GPGGA,002630.000,3037.3243,N,09620.2388,W,1,09,0.9,97.2,M,-23.3,M,,0000*57
$GPRMC,002630.000,A,3037.3243,N,09620.2388,W,0.00,,041008,,,A*65
$GPGGA,002631.000,3037.3243,N,09620.2388,W,1,09,0.9,97.2,M,-23.3,M,,0000*56
$GPRMC,002631.000,A,3037.3243,N,09620.2388,W,0.00,,041008,,,A*64
